    const POIS_PREF_MUNICIPIOS_RJ = [
      { nome: "Prefeitura Municipal de Angra dos Reis — Angra dos Reis", cidade: "Angra dos Reis", meso: "Sul Fluminense", tipo: "Prédio público", lat: -23.008894, lng: -44.319422, dica: "Sede do poder executivo municipal. Coordenadas cruzadas com OpenStreetMap / centróide IBGE; confirme o endereço no portal da prefeitura e no mapa." },
      { nome: "Prefeitura Municipal — Aperibé (ref. centro urbano OSM)", cidade: "Aperibé", meso: "Noroeste Fluminense", tipo: "Prédio público", lat: -21.621193, lng: -42.102817, dica: "Sede do poder executivo municipal. Coordenadas cruzadas com OpenStreetMap / centróide IBGE; confirme o endereço no portal da prefeitura e no mapa." },
      { nome: "Prefeitura Municipal de Araruama — Araruama", cidade: "Araruama", meso: "Baixada Fluminense", tipo: "Prédio público", lat: -22.877176, lng: -42.340239, dica: "Sede do poder executivo municipal. Coordenadas cruzadas com OpenStreetMap / centróide IBGE; confirme o endereço no portal da prefeitura e no mapa." },
      { nome: "Prefeitura Municipal — Areal (ref. centro urbano OSM)", cidade: "Areal", meso: "Centro Fluminense", tipo: "Prédio público", lat: -22.231492, lng: -43.105626, dica: "Sede do poder executivo municipal. Coordenadas cruzadas com OpenStreetMap / centróide IBGE; confirme o endereço no portal da prefeitura e no mapa." },
      { nome: "Prefeitura Municipal — Armação dos Búzios (ref. centro urbano OSM)", cidade: "Armação dos Búzios", meso: "Baixada Fluminense", tipo: "Prédio público", lat: -22.75978, lng: -41.887527, dica: "Sede do poder executivo municipal. Coordenadas cruzadas com OpenStreetMap / centróide IBGE; confirme o endereço no portal da prefeitura e no mapa." },
      { nome: "Prefeitura Municipal de Arraial do Cabo — Arraial do Cabo", cidade: "Arraial do Cabo", meso: "Baixada Fluminense", tipo: "Prédio público", lat: -22.969272, lng: -42.026051, dica: "Sede do poder executivo municipal. Coordenadas cruzadas com OpenStreetMap / centróide IBGE; confirme o endereço no portal da prefeitura e no mapa." },
      { nome: "Prefeitura Municipal Barra do Piraí — Barra do Piraí", cidade: "Barra do Piraí", meso: "Sul Fluminense", tipo: "Prédio público", lat: -22.467032, lng: -43.827523, dica: "Sede do poder executivo municipal. Coordenadas cruzadas com OpenStreetMap / centróide IBGE; confirme o endereço no portal da prefeitura e no mapa." },
      { nome: "Prefeitura Municipal de Barra Mansa — Barra Mansa", cidade: "Barra Mansa", meso: "Sul Fluminense", tipo: "Prédio público", lat: -22.5482, lng: -44.1758, dica: "Sede do poder executivo municipal. Coordenadas cruzadas com OpenStreetMap / centróide IBGE; confirme o endereço no portal da prefeitura e no mapa." },
      { nome: "Prefeitura Municipal de Belford Roxo — Belford Roxo", cidade: "Belford Roxo", meso: "Metropolitana do Rio de Janeiro", tipo: "Prédio público", lat: -22.737344, lng: -43.385124, dica: "Sede do poder executivo municipal. Coordenadas cruzadas com OpenStreetMap / centróide IBGE; confirme o endereço no portal da prefeitura e no mapa." },
      { nome: "Prefeitura Municipal — Bom Jardim (ref. centro urbano OSM)", cidade: "Bom Jardim", meso: "Centro Fluminense", tipo: "Prédio público", lat: -22.206108, lng: -42.379757, dica: "Sede do poder executivo municipal. Coordenadas cruzadas com OpenStreetMap / centróide IBGE; confirme o endereço no portal da prefeitura e no mapa." },
      { nome: "Prefeitura Municipal de Bom Jesus do Itabapoana — Bom Jesus do Itabapoana", cidade: "Bom Jesus do Itabapoana", meso: "Noroeste Fluminense", tipo: "Prédio público", lat: -21.136845, lng: -41.676707, dica: "Sede do poder executivo municipal. Coordenadas cruzadas com OpenStreetMap / centróide IBGE; confirme o endereço no portal da prefeitura e no mapa." },
      { nome: "Prefeitura Municipal de Cabo Frio — Cabo Frio", cidade: "Cabo Frio", meso: "Baixada Fluminense", tipo: "Prédio público", lat: -22.877195, lng: -42.013976, dica: "Sede do poder executivo municipal. Coordenadas cruzadas com OpenStreetMap / centróide IBGE; confirme o endereço no portal da prefeitura e no mapa." },
      { nome: "Prefeitura Municipal — Cachoeiras de Macacu (ref. centro urbano OSM)", cidade: "Cachoeiras de Macacu", meso: "Metropolitana do Rio de Janeiro", tipo: "Prédio público", lat: -22.462686, lng: -42.653441, dica: "Sede do poder executivo municipal. Coordenadas cruzadas com OpenStreetMap / centróide IBGE; confirme o endereço no portal da prefeitura e no mapa." },
      { nome: "Prefeitura Municipal — Cambuci (ref. centro urbano OSM)", cidade: "Cambuci", meso: "Noroeste Fluminense", tipo: "Prédio público", lat: -21.48359, lng: -41.907113, dica: "Sede do poder executivo municipal. Coordenadas cruzadas com OpenStreetMap / centróide IBGE; confirme o endereço no portal da prefeitura e no mapa." },
      { nome: "Centro Administrativo José Alves de Azevedo — Campos dos Goytacazes", cidade: "Campos dos Goytacazes", meso: "Norte Fluminense", tipo: "Prédio público", lat: -21.764006, lng: -41.335374, dica: "Sede do poder executivo municipal. Coordenadas cruzadas com OpenStreetMap / centróide IBGE; confirme o endereço no portal da prefeitura e no mapa." },
      { nome: "Prefeitura Municipal — Cantagalo (ref. centro urbano OSM)", cidade: "Cantagalo", meso: "Centro Fluminense", tipo: "Prédio público", lat: -21.867398, lng: -42.306237, dica: "Sede do poder executivo municipal. Coordenadas cruzadas com OpenStreetMap / centróide IBGE; confirme o endereço no portal da prefeitura e no mapa." },
      { nome: "Prefeitura Municipal — Carapebus (ref. centro urbano OSM)", cidade: "Carapebus", meso: "Norte Fluminense", tipo: "Prédio público", lat: -22.186997, lng: -41.663376, dica: "Sede do poder executivo municipal. Coordenadas cruzadas com OpenStreetMap / centróide IBGE; confirme o endereço no portal da prefeitura e no mapa." },
      { nome: "Prefeitura Municipal de Cardoso Moreira — Cardoso Moreira", cidade: "Cardoso Moreira", meso: "Norte Fluminense", tipo: "Prédio público", lat: -21.486969, lng: -41.609605, dica: "Sede do poder executivo municipal. Coordenadas cruzadas com OpenStreetMap / centróide IBGE; confirme o endereço no portal da prefeitura e no mapa." },
      { nome: "Prefeitura Municipal do Carmo — Carmo", cidade: "Carmo", meso: "Centro Fluminense", tipo: "Prédio público", lat: -21.932713, lng: -42.610156, dica: "Sede do poder executivo municipal. Coordenadas cruzadas com OpenStreetMap / centróide IBGE; confirme o endereço no portal da prefeitura e no mapa." },
      { nome: "Prefeitura Municipal — Casimiro de Abreu (ref. centro urbano OSM)", cidade: "Casimiro de Abreu", meso: "Baixada Fluminense", tipo: "Prédio público", lat: -22.475615, lng: -42.152223, dica: "Sede do poder executivo municipal. Coordenadas cruzadas com OpenStreetMap / centróide IBGE; confirme o endereço no portal da prefeitura e no mapa." },
      { nome: "Prefeitura Municipal de Comendador Levy Gasparian — Comendador Levy Gasparian", cidade: "Comendador Levy Gasparian", meso: "Centro Fluminense", tipo: "Prédio público", lat: -22.054364, lng: -43.205976, dica: "Sede do poder executivo municipal. Coordenadas cruzadas com OpenStreetMap / centróide IBGE; confirme o endereço no portal da prefeitura e no mapa." },
      { nome: "Prefeitura Municipal — Conceição de Macabu (ref. centro urbano OSM)", cidade: "Conceição de Macabu", meso: "Norte Fluminense", tipo: "Prédio público", lat: -22.161895, lng: -41.880643, dica: "Sede do poder executivo municipal. Coordenadas cruzadas com OpenStreetMap / centróide IBGE; confirme o endereço no portal da prefeitura e no mapa." },
      { nome: "Prefeitura Municipal de Cordeiro — Cordeiro", cidade: "Cordeiro", meso: "Centro Fluminense", tipo: "Prédio público", lat: -22.027356, lng: -42.361332, dica: "Sede do poder executivo municipal. Coordenadas cruzadas com OpenStreetMap / centróide IBGE; confirme o endereço no portal da prefeitura e no mapa." },
      { nome: "Prefeitura Municipal — Duas Barras (ref. centro urbano OSM)", cidade: "Duas Barras", meso: "Centro Fluminense", tipo: "Prédio público", lat: -22.035137, lng: -42.490178, dica: "Sede do poder executivo municipal. Coordenadas cruzadas com OpenStreetMap / centróide IBGE; confirme o endereço no portal da prefeitura e no mapa." },
      { nome: "Prefeitura Municipal — Duque de Caxias (ref. centro urbano OSM)", cidade: "Duque de Caxias", meso: "Metropolitana do Rio de Janeiro", tipo: "Prédio público", lat: -22.642916, lng: -43.302127, dica: "Sede do poder executivo municipal. Coordenadas cruzadas com OpenStreetMap / centróide IBGE; confirme o endereço no portal da prefeitura e no mapa." },
      { nome: "Prefeitura Municipal — Engenheiro Paulo de Frontin (ref. centro urbano OSM)", cidade: "Engenheiro Paulo de Frontin", meso: "Metropolitana do Rio de Janeiro", tipo: "Prédio público", lat: -22.520142, lng: -43.634898, dica: "Sede do poder executivo municipal. Coordenadas cruzadas com OpenStreetMap / centróide IBGE; confirme o endereço no portal da prefeitura e no mapa." },
      { nome: "Prefeitura Municipal — Guapimirim (ref. centro urbano OSM)", cidade: "Guapimirim", meso: "Metropolitana do Rio de Janeiro", tipo: "Prédio público", lat: -22.526631, lng: -42.979069, dica: "Sede do poder executivo municipal. Coordenadas cruzadas com OpenStreetMap / centróide IBGE; confirme o endereço no portal da prefeitura e no mapa." },
      { nome: "Prefeitura Municipal de Iguaba Grande — Iguaba Grande", cidade: "Iguaba Grande", meso: "Baixada Fluminense", tipo: "Prédio público", lat: -22.840566, lng: -42.212385, dica: "Sede do poder executivo municipal. Coordenadas cruzadas com OpenStreetMap / centróide IBGE; confirme o endereço no portal da prefeitura e no mapa." },
      { nome: "Prefeitura Municipal de Itaboraí — Itaboraí", cidade: "Itaboraí", meso: "Metropolitana do Rio de Janeiro", tipo: "Prédio público", lat: -22.7457, lng: -42.858153, dica: "Sede do poder executivo municipal. Coordenadas cruzadas com OpenStreetMap / centróide IBGE; confirme o endereço no portal da prefeitura e no mapa." },
      { nome: "Prefeitura Municipal de Itaguaí — Itaguaí", cidade: "Itaguaí", meso: "Metropolitana do Rio de Janeiro", tipo: "Prédio público", lat: -22.864106, lng: -43.77734, dica: "Sede do poder executivo municipal. Coordenadas cruzadas com OpenStreetMap / centróide IBGE; confirme o endereço no portal da prefeitura e no mapa." },
      { nome: "Prefeitura Municipal de Italva — Italva", cidade: "Italva", meso: "Noroeste Fluminense", tipo: "Prédio público", lat: -21.434, lng: -41.68273, dica: "Sede do poder executivo municipal. Coordenadas cruzadas com OpenStreetMap / centróide IBGE; confirme o endereço no portal da prefeitura e no mapa." },
      { nome: "Prefeitura Municipal — Itaocara (ref. centro urbano OSM)", cidade: "Itaocara", meso: "Noroeste Fluminense", tipo: "Prédio público", lat: -21.728929, lng: -42.089729, dica: "Sede do poder executivo municipal. Coordenadas cruzadas com OpenStreetMap / centróide IBGE; confirme o endereço no portal da prefeitura e no mapa." },
      { nome: "Prefeitura Municipal de Itaperuna — Itaperuna", cidade: "Itaperuna", meso: "Noroeste Fluminense", tipo: "Prédio público", lat: -21.198855, lng: -41.904547, dica: "Sede do poder executivo municipal. Coordenadas cruzadas com OpenStreetMap / centróide IBGE; confirme o endereço no portal da prefeitura e no mapa." },
      { nome: "Prefeitura Municipal — Itatiaia (ref. centro urbano OSM)", cidade: "Itatiaia", meso: "Sul Fluminense", tipo: "Prédio público", lat: -22.495528, lng: -44.563311, dica: "Sede do poder executivo municipal. Coordenadas cruzadas com OpenStreetMap / centróide IBGE; confirme o endereço no portal da prefeitura e no mapa." },
      { nome: "Prefeitura Municipal — Japeri (ref. centro urbano OSM)", cidade: "Japeri", meso: "Metropolitana do Rio de Janeiro", tipo: "Prédio público", lat: -22.642764, lng: -43.653383, dica: "Sede do poder executivo municipal. Coordenadas cruzadas com OpenStreetMap / centróide IBGE; confirme o endereço no portal da prefeitura e no mapa." },
      { nome: "Prefeitura Municipal — Laje do Muriaé (ref. centro urbano OSM)", cidade: "Laje do Muriaé", meso: "Noroeste Fluminense", tipo: "Prédio público", lat: -21.251326, lng: -42.115382, dica: "Sede do poder executivo municipal. Coordenadas cruzadas com OpenStreetMap / centróide IBGE; confirme o endereço no portal da prefeitura e no mapa." },
      { nome: "Prefeitura Municipal de Macaé — Macaé", cidade: "Macaé", meso: "Norte Fluminense", tipo: "Prédio público", lat: -22.374689, lng: -41.776749, dica: "Sede do poder executivo municipal. Coordenadas cruzadas com OpenStreetMap / centróide IBGE; confirme o endereço no portal da prefeitura e no mapa." },
      { nome: "Prefeitura Municipal de Macuco — Macuco", cidade: "Macuco", meso: "Centro Fluminense", tipo: "Prédio público", lat: -21.986883, lng: -42.25464, dica: "Sede do poder executivo municipal. Coordenadas cruzadas com OpenStreetMap / centróide IBGE; confirme o endereço no portal da prefeitura e no mapa." },
      { nome: "Prefeitura Municipal de Magé — Magé", cidade: "Magé", meso: "Metropolitana do Rio de Janeiro", tipo: "Prédio público", lat: -22.656881, lng: -43.038598, dica: "Sede do poder executivo municipal. Coordenadas cruzadas com OpenStreetMap / centróide IBGE; confirme o endereço no portal da prefeitura e no mapa." },
      { nome: "Prefeitura Municipal — Mangaratiba (ref. centro urbano OSM)", cidade: "Mangaratiba", meso: "Metropolitana do Rio de Janeiro", tipo: "Prédio público", lat: -22.941596, lng: -44.118192, dica: "Sede do poder executivo municipal. Coordenadas cruzadas com OpenStreetMap / centróide IBGE; confirme o endereço no portal da prefeitura e no mapa." },
      { nome: "Prefeitura Municipal de Maricá — Maricá", cidade: "Maricá", meso: "Metropolitana do Rio de Janeiro", tipo: "Prédio público", lat: -22.919852, lng: -42.82106, dica: "Sede do poder executivo municipal. Coordenadas cruzadas com OpenStreetMap / centróide IBGE; confirme o endereço no portal da prefeitura e no mapa." },
      { nome: "Prefeitura Municipal de Mendes — Mendes", cidade: "Mendes", meso: "Metropolitana do Rio de Janeiro", tipo: "Prédio público", lat: -22.526589, lng: -43.73337, dica: "Sede do poder executivo municipal. Coordenadas cruzadas com OpenStreetMap / centróide IBGE; confirme o endereço no portal da prefeitura e no mapa." },
      { nome: "Prefeitura Municipal — Mesquita (ref. centro urbano OSM)", cidade: "Mesquita", meso: "Metropolitana do Rio de Janeiro", tipo: "Prédio público", lat: -22.802535, lng: -43.460259, dica: "Sede do poder executivo municipal. Coordenadas cruzadas com OpenStreetMap / centróide IBGE; confirme o endereço no portal da prefeitura e no mapa." },
      { nome: "Prefeitura Municipal de Miguel Pereira — Miguel Pereira", cidade: "Miguel Pereira", meso: "Metropolitana do Rio de Janeiro", tipo: "Prédio público", lat: -22.456348, lng: -43.473069, dica: "Sede do poder executivo municipal. Coordenadas cruzadas com OpenStreetMap / centróide IBGE; confirme o endereço no portal da prefeitura e no mapa." },
      { nome: "Prefeitura Municipal de Miracema — Miracema", cidade: "Miracema", meso: "Noroeste Fluminense", tipo: "Prédio público", lat: -21.41494, lng: -42.1956, dica: "Sede do poder executivo municipal. Coordenadas cruzadas com OpenStreetMap / centróide IBGE; confirme o endereço no portal da prefeitura e no mapa." },
      { nome: "Prefeitura Municipal de Natividade — Natividade", cidade: "Natividade", meso: "Noroeste Fluminense", tipo: "Prédio público", lat: -21.044225, lng: -41.973063, dica: "Sede do poder executivo municipal. Coordenadas cruzadas com OpenStreetMap / centróide IBGE; confirme o endereço no portal da prefeitura e no mapa." },
      { nome: "Prefeitura Municipal — Nilópolis (ref. centro urbano OSM)", cidade: "Nilópolis", meso: "Metropolitana do Rio de Janeiro", tipo: "Prédio público", lat: -22.808011, lng: -43.413822, dica: "Sede do poder executivo municipal. Coordenadas cruzadas com OpenStreetMap / centróide IBGE; confirme o endereço no portal da prefeitura e no mapa." },
      { nome: "Prefeitura de Niterói — Niterói", cidade: "Niterói", meso: "Metropolitana do Rio de Janeiro", tipo: "Prédio público", lat: -22.8839, lng: -43.1034, dica: "Sede do poder executivo municipal. Coordenadas cruzadas com OpenStreetMap / centróide IBGE; confirme o endereço no portal da prefeitura e no mapa." },
      { nome: "Prefeitura Municipal de Nova Friburgo — Nova Friburgo", cidade: "Nova Friburgo", meso: "Centro Fluminense", tipo: "Prédio público", lat: -22.287713, lng: -42.531467, dica: "Sede do poder executivo municipal. Coordenadas cruzadas com OpenStreetMap / centróide IBGE; confirme o endereço no portal da prefeitura e no mapa." },
      { nome: "Prefeitura Municipal — Nova Iguaçu (ref. centro urbano OSM)", cidade: "Nova Iguaçu", meso: "Metropolitana do Rio de Janeiro", tipo: "Prédio público", lat: -22.759217, lng: -43.450873, dica: "Sede do poder executivo municipal. Coordenadas cruzadas com OpenStreetMap / centróide IBGE; confirme o endereço no portal da prefeitura e no mapa." },
      { nome: "Prefeitura Municipal — Paracambi (ref. centro urbano OSM)", cidade: "Paracambi", meso: "Metropolitana do Rio de Janeiro", tipo: "Prédio público", lat: -22.610916, lng: -43.709691, dica: "Sede do poder executivo municipal. Coordenadas cruzadas com OpenStreetMap / centróide IBGE; confirme o endereço no portal da prefeitura e no mapa." },
      { nome: "Prefeitura Municipal — Paraíba do Sul (ref. centro urbano OSM)", cidade: "Paraíba do Sul", meso: "Centro Fluminense", tipo: "Prédio público", lat: -22.187395, lng: -43.303461, dica: "Sede do poder executivo municipal. Coordenadas cruzadas com OpenStreetMap / centróide IBGE; confirme o endereço no portal da prefeitura e no mapa." },
      { nome: "Prefeitura Municipal de Paraty — Paraty", cidade: "Paraty", meso: "Sul Fluminense", tipo: "Prédio público", lat: -23.215761, lng: -44.713599, dica: "Sede do poder executivo municipal. Coordenadas cruzadas com OpenStreetMap / centróide IBGE; confirme o endereço no portal da prefeitura e no mapa." },
      { nome: "Prefeitura Municipal — Paty do Alferes (ref. centro urbano OSM)", cidade: "Paty do Alferes", meso: "Metropolitana do Rio de Janeiro", tipo: "Prédio público", lat: -22.377538, lng: -43.397051, dica: "Sede do poder executivo municipal. Coordenadas cruzadas com OpenStreetMap / centróide IBGE; confirme o endereço no portal da prefeitura e no mapa." },
      { nome: "Prefeitura Municipal de Petrópolis — Petrópolis", cidade: "Petrópolis", meso: "Metropolitana do Rio de Janeiro", tipo: "Prédio público", lat: -22.507384, lng: -43.181511, dica: "Sede do poder executivo municipal. Coordenadas cruzadas com OpenStreetMap / centróide IBGE; confirme o endereço no portal da prefeitura e no mapa." },
      { nome: "Prefeitura Municipal — Pinheiral (ref. centro urbano OSM)", cidade: "Pinheiral", meso: "Sul Fluminense", tipo: "Prédio público", lat: -22.512944, lng: -44.001435, dica: "Sede do poder executivo municipal. Coordenadas cruzadas com OpenStreetMap / centróide IBGE; confirme o endereço no portal da prefeitura e no mapa." },
      { nome: "Prefeitura Municipal de Piraí — Piraí", cidade: "Piraí", meso: "Sul Fluminense", tipo: "Prédio público", lat: -22.628444, lng: -43.898246, dica: "Sede do poder executivo municipal. Coordenadas cruzadas com OpenStreetMap / centróide IBGE; confirme o endereço no portal da prefeitura e no mapa." },
      { nome: "Prefeitura Municipal de Porciúncula — Porciúncula", cidade: "Porciúncula", meso: "Noroeste Fluminense", tipo: "Prédio público", lat: -20.963739, lng: -42.038558, dica: "Sede do poder executivo municipal. Coordenadas cruzadas com OpenStreetMap / centróide IBGE; confirme o endereço no portal da prefeitura e no mapa." },
      { nome: "Prefeitura Municipal de Porto Real — Porto Real", cidade: "Porto Real", meso: "Sul Fluminense", tipo: "Prédio público", lat: -22.419222, lng: -44.302424, dica: "Sede do poder executivo municipal. Coordenadas cruzadas com OpenStreetMap / centróide IBGE; confirme o endereço no portal da prefeitura e no mapa." },
      { nome: "Prefeitura Municipal — Quatis (ref. centro urbano OSM)", cidade: "Quatis", meso: "Sul Fluminense", tipo: "Prédio público", lat: -22.362593, lng: -44.249509, dica: "Sede do poder executivo municipal. Coordenadas cruzadas com OpenStreetMap / centróide IBGE; confirme o endereço no portal da prefeitura e no mapa." },
      { nome: "Prefeitura Municipal — Queimados (ref. centro urbano OSM)", cidade: "Queimados", meso: "Metropolitana do Rio de Janeiro", tipo: "Prédio público", lat: -22.731342, lng: -43.591315, dica: "Sede do poder executivo municipal. Coordenadas cruzadas com OpenStreetMap / centróide IBGE; confirme o endereço no portal da prefeitura e no mapa." },
      { nome: "Prefeitura Municipal de Quissamã — Quissamã", cidade: "Quissamã", meso: "Norte Fluminense", tipo: "Prédio público", lat: -22.106954, lng: -41.471171, dica: "Sede do poder executivo municipal. Coordenadas cruzadas com OpenStreetMap / centróide IBGE; confirme o endereço no portal da prefeitura e no mapa." },
      { nome: "Prefeitura Municipal de Resende — Resende", cidade: "Resende", meso: "Sul Fluminense", tipo: "Prédio público", lat: -22.463251, lng: -44.455005, dica: "Sede do poder executivo municipal. Coordenadas cruzadas com OpenStreetMap / centróide IBGE; confirme o endereço no portal da prefeitura e no mapa." },
      { nome: "Prefeitura Municipal de Rio Bonito — Rio Bonito", cidade: "Rio Bonito", meso: "Metropolitana do Rio de Janeiro", tipo: "Prédio público", lat: -22.710807, lng: -42.648351, dica: "Sede do poder executivo municipal. Coordenadas cruzadas com OpenStreetMap / centróide IBGE; confirme o endereço no portal da prefeitura e no mapa." },
      { nome: "Prefeitura Municipal — Rio Claro (ref. centro urbano OSM)", cidade: "Rio Claro", meso: "Sul Fluminense", tipo: "Prédio público", lat: -22.78574, lng: -44.074267, dica: "Sede do poder executivo municipal. Coordenadas cruzadas com OpenStreetMap / centróide IBGE; confirme o endereço no portal da prefeitura e no mapa." },
      { nome: "Prefeitura Municipal de Rio das Flores — Rio das Flores", cidade: "Rio das Flores", meso: "Sul Fluminense", tipo: "Prédio público", lat: -22.165219, lng: -43.584725, dica: "Sede do poder executivo municipal. Coordenadas cruzadas com OpenStreetMap / centróide IBGE; confirme o endereço no portal da prefeitura e no mapa." },
      { nome: "Prefeitura Municipal de Rio das Ostras — Rio das Ostras", cidade: "Rio das Ostras", meso: "Baixada Fluminense", tipo: "Prédio público", lat: -22.498669, lng: -41.921734, dica: "Sede do poder executivo municipal. Coordenadas cruzadas com OpenStreetMap / centróide IBGE; confirme o endereço no portal da prefeitura e no mapa." },
      { nome: "Prefeitura da Cidade do Rio de Janeiro — Cidade Nova", cidade: "Rio de Janeiro", meso: "Metropolitana do Rio de Janeiro", tipo: "Prédio público", lat: -22.9057, lng: -43.1725, dica: "Sede do poder executivo municipal. Coordenadas cruzadas com OpenStreetMap / centróide IBGE; confirme o endereço no portal da prefeitura e no mapa." },
      { nome: "Prefeitura Municipal — Santa Maria Madalena (ref. centro urbano OSM)", cidade: "Santa Maria Madalena", meso: "Centro Fluminense", tipo: "Prédio público", lat: -21.951856, lng: -41.900025, dica: "Sede do poder executivo municipal. Coordenadas cruzadas com OpenStreetMap / centróide IBGE; confirme o endereço no portal da prefeitura e no mapa." },
      { nome: "Prefeitura Municipal — Santo Antônio de Pádua (ref. centro urbano OSM)", cidade: "Santo Antônio de Pádua", meso: "Noroeste Fluminense", tipo: "Prédio público", lat: -21.571164, lng: -42.201437, dica: "Sede do poder executivo municipal. Coordenadas cruzadas com OpenStreetMap / centróide IBGE; confirme o endereço no portal da prefeitura e no mapa." },
      { nome: "Prefeitura Municipal de São Fidélis — São Fidélis", cidade: "São Fidélis", meso: "Norte Fluminense", tipo: "Prédio público", lat: -21.646865, lng: -41.745973, dica: "Sede do poder executivo municipal. Coordenadas cruzadas com OpenStreetMap / centróide IBGE; confirme o endereço no portal da prefeitura e no mapa." },
      { nome: "Prefeitura Municipal de São Francisco de Itabapoana — São Francisco de Itabapoana", cidade: "São Francisco de Itabapoana", meso: "Norte Fluminense", tipo: "Prédio público", lat: -21.473511, lng: -41.116365, dica: "Sede do poder executivo municipal. Coordenadas cruzadas com OpenStreetMap / centróide IBGE; confirme o endereço no portal da prefeitura e no mapa." },
      { nome: "Prefeitura Municipal de São Gonçalo — São Gonçalo", cidade: "São Gonçalo", meso: "Metropolitana do Rio de Janeiro", tipo: "Prédio público", lat: -22.825088, lng: -43.048909, dica: "Sede do poder executivo municipal. Coordenadas cruzadas com OpenStreetMap / centróide IBGE; confirme o endereço no portal da prefeitura e no mapa." },
      { nome: "Prefeitura Municipal São João da Barra — São João da Barra", cidade: "São João da Barra", meso: "Norte Fluminense", tipo: "Prédio público", lat: -21.633601, lng: -41.048732, dica: "Sede do poder executivo municipal. Coordenadas cruzadas com OpenStreetMap / centróide IBGE; confirme o endereço no portal da prefeitura e no mapa." },
      { nome: "Prefeitura Municipal — São João de Meriti (ref. centro urbano OSM)", cidade: "São João de Meriti", meso: "Metropolitana do Rio de Janeiro", tipo: "Prédio público", lat: -22.785357, lng: -43.366715, dica: "Sede do poder executivo municipal. Coordenadas cruzadas com OpenStreetMap / centróide IBGE; confirme o endereço no portal da prefeitura e no mapa." },
      { nome: "Prefeitura Municipal de São José de Ubá — São José de Ubá", cidade: "São José de Ubá", meso: "Noroeste Fluminense", tipo: "Prédio público", lat: -21.36149, lng: -41.946397, dica: "Sede do poder executivo municipal. Coordenadas cruzadas com OpenStreetMap / centróide IBGE; confirme o endereço no portal da prefeitura e no mapa." },
      { nome: "Prefeitura Municipal de São José do Vale do Rio Preto — São José do Vale do Rio Preto", cidade: "São José do Vale do Rio Preto", meso: "Metropolitana do Rio de Janeiro", tipo: "Prédio público", lat: -22.148171, lng: -42.917654, dica: "Sede do poder executivo municipal. Coordenadas cruzadas com OpenStreetMap / centróide IBGE; confirme o endereço no portal da prefeitura e no mapa." },
      { nome: "Prefeitura Municipal de São Pedro da Aldeia — São Pedro da Aldeia", cidade: "São Pedro da Aldeia", meso: "Baixada Fluminense", tipo: "Prédio público", lat: -22.840885, lng: -42.101057, dica: "Sede do poder executivo municipal. Coordenadas cruzadas com OpenStreetMap / centróide IBGE; confirme o endereço no portal da prefeitura e no mapa." },
      { nome: "Prefeitura Municipal — São Sebastião do Alto (ref. centro urbano OSM)", cidade: "São Sebastião do Alto", meso: "Centro Fluminense", tipo: "Prédio público", lat: -21.876587, lng: -42.111523, dica: "Sede do poder executivo municipal. Coordenadas cruzadas com OpenStreetMap / centróide IBGE; confirme o endereço no portal da prefeitura e no mapa." },
      { nome: "Prefeitura Municipal — Sapucaia (ref. centro urbano OSM)", cidade: "Sapucaia", meso: "Centro Fluminense", tipo: "Prédio público", lat: -22.019688, lng: -42.840827, dica: "Sede do poder executivo municipal. Coordenadas cruzadas com OpenStreetMap / centróide IBGE; confirme o endereço no portal da prefeitura e no mapa." },
      { nome: "Prefeitura Municipal de Saquarema — Saquarema", cidade: "Saquarema", meso: "Baixada Fluminense", tipo: "Prédio público", lat: -22.932556, lng: -42.496908, dica: "Sede do poder executivo municipal. Coordenadas cruzadas com OpenStreetMap / centróide IBGE; confirme o endereço no portal da prefeitura e no mapa." },
      { nome: "Prefeitura Municipal de Seropédica — Seropédica", cidade: "Seropédica", meso: "Metropolitana do Rio de Janeiro", tipo: "Prédio público", lat: -22.743178, lng: -43.705705, dica: "Sede do poder executivo municipal. Coordenadas cruzadas com OpenStreetMap / centróide IBGE; confirme o endereço no portal da prefeitura e no mapa." },
      { nome: "Prefeitura Municipal — Silva Jardim (ref. centro urbano OSM)", cidade: "Silva Jardim", meso: "Baixada Fluminense", tipo: "Prédio público", lat: -22.568787, lng: -42.391544, dica: "Sede do poder executivo municipal. Coordenadas cruzadas com OpenStreetMap / centróide IBGE; confirme o endereço no portal da prefeitura e no mapa." },
      { nome: "Prefeitura Municipal de Sumidouro — Sumidouro", cidade: "Sumidouro", meso: "Centro Fluminense", tipo: "Prédio público", lat: -22.048476, lng: -42.673281, dica: "Sede do poder executivo municipal. Coordenadas cruzadas com OpenStreetMap / centróide IBGE; confirme o endereço no portal da prefeitura e no mapa." },
      { nome: "Prefeitura Municipal — Tanguá (ref. centro urbano OSM)", cidade: "Tanguá", meso: "Metropolitana do Rio de Janeiro", tipo: "Prédio público", lat: -22.735378, lng: -42.720227, dica: "Sede do poder executivo municipal. Coordenadas cruzadas com OpenStreetMap / centróide IBGE; confirme o endereço no portal da prefeitura e no mapa." },
      { nome: "Prefeitura Municipal de Teresópolis — Teresópolis", cidade: "Teresópolis", meso: "Metropolitana do Rio de Janeiro", tipo: "Prédio público", lat: -22.41792, lng: -42.973833, dica: "Sede do poder executivo municipal. Coordenadas cruzadas com OpenStreetMap / centróide IBGE; confirme o endereço no portal da prefeitura e no mapa." },
      { nome: "Prefeitura Municipal — Trajano de Moraes (ref. centro urbano OSM)", cidade: "Trajano de Moraes", meso: "Centro Fluminense", tipo: "Prédio público", lat: -22.155584, lng: -42.15947, dica: "Sede do poder executivo municipal. Coordenadas cruzadas com OpenStreetMap / centróide IBGE; confirme o endereço no portal da prefeitura e no mapa." },
      { nome: "Prefeitura Municipal de Três Rios — Três Rios", cidade: "Três Rios", meso: "Centro Fluminense", tipo: "Prédio público", lat: -22.1169, lng: -43.2087, dica: "Sede do poder executivo municipal. Coordenadas cruzadas com OpenStreetMap / centróide IBGE; confirme o endereço no portal da prefeitura e no mapa." },
      { nome: "Prefeitura Municipal — Valença (ref. centróide IBGE)", cidade: "Valença", meso: "Sul Fluminense", tipo: "Prédio público", lat: -22.247466, lng: -43.865945, dica: "Sede do poder executivo municipal. Coordenadas cruzadas com OpenStreetMap / centróide IBGE; confirme o endereço no portal da prefeitura e no mapa." },
      { nome: "Prefeitura Municipal de Varre-Sai — Varre-Sai", cidade: "Varre-Sai", meso: "Noroeste Fluminense", tipo: "Prédio público", lat: -20.928661, lng: -41.867762, dica: "Sede do poder executivo municipal. Coordenadas cruzadas com OpenStreetMap / centróide IBGE; confirme o endereço no portal da prefeitura e no mapa." },
      { nome: "Prefeitura Municipal — Vassouras (ref. centro urbano OSM)", cidade: "Vassouras", meso: "Metropolitana do Rio de Janeiro", tipo: "Prédio público", lat: -22.370647, lng: -43.592331, dica: "Sede do poder executivo municipal. Coordenadas cruzadas com OpenStreetMap / centróide IBGE; confirme o endereço no portal da prefeitura e no mapa." },
      { nome: "Palácio 17 de Julho ( Prefeitura Municipal de Volta Redonda) — Volta Redonda", cidade: "Volta Redonda", meso: "Sul Fluminense", tipo: "Prédio público", lat: -22.508565, lng: -44.094239, dica: "Sede do poder executivo municipal. Coordenadas cruzadas com OpenStreetMap / centróide IBGE; confirme o endereço no portal da prefeitura e no mapa." },
    ];